{
    "local_wst_warn_info": [
        {
            "basin_no": "1630",
            "st_no": "W1771301",
            "st_name": "民生橋",
            "river": "菜寮溪",
            "district": "左鎮區",
            "info": "26.47",
            "alert_level": "未達警戒",
            "warn_info": "水位目前26.47公尺",
            "date": "2019\/10\/14 08:30",
            "change": "0.00",
            "lat": 23.03562777777778,
            "lon": 120.41689722222223
        },
        {
            "basin_no": "1630",
            "st_no": "W1774101",
            "st_name": "灣裡橋",
            "river": "六分寮中排一",
            "district": "善化區",
            "info": "7.48",
            "alert_level": "未達警戒",
            "warn_info": "水位目前7.48公尺,距附近低漥處地面高程尚有5.52公尺,距警戒水位尚有4.59公尺",
            "date": "2019\/10\/14 08:30",
            "change": "0.00",
            "lat": 23.153388888888887,
            "lon": 120.29091666666666
        },
        {
            "basin_no": "1630",
            "st_no": "W1772301",
            "st_name": "劉厝橋",
            "river": "劉厝排水",
            "district": "西港區",
            "info": "0.30",
            "alert_level": "未達警戒",
            "warn_info": "水位目前0.30公尺,距附近低漥處地面高程尚有3.60公尺,距警戒水位尚有1.55公尺",
            "date": "2019\/10\/14 08:30",
            "change": "0.00",
            "lat": 23.130391666666668,
            "lon": 120.17983333333333
        },
        {
            "basin_no": "1630",
            "st_no": "W1772203",
            "st_name": "埔尾橋",
            "river": "大寮排水",
            "district": "佳里區",
            "info": "0.28",
            "alert_level": "未達警戒",
            "warn_info": "水位目前0.28公尺,距警戒水位尚有2.58公尺,行動值為2公尺",
            "date": "2019\/10\/14 08:30",
            "change": "0.03",
            "lat": 23.15338611111111,
            "lon": 120.15796944444445
        },
        {
            "basin_no": "1630",
            "st_no": "W1770905",
            "st_name": "曾文溪排水無名橋",
            "river": "曾文溪排水",
            "district": "安南區",
            "info": "0.49",
            "alert_level": "未達警戒",
            "warn_info": "水位目前0.49公尺",
            "date": "2019\/10\/14 08:30",
            "change": "0.02",
            "lat": 23.02407222222222,
            "lon": 120.16175000000001
        },
        {
            "basin_no": "1630",
            "st_no": "W1772204",
            "st_name": "後港排水無名橋",
            "river": "後港排水",
            "district": "佳里區",
            "info": "0.26",
            "alert_level": "未達警戒",
            "warn_info": "水位目前0.26公尺,距警戒水位尚有1.39公尺",
            "date": "2019\/10\/14 08:30",
            "change": "0.04",
            "lat": 23.173536111111112,
            "lon": 120.133475
        },
        {
            "basin_no": "1630",
            "st_no": "W1772401",
            "st_name": "七股溪橋",
            "river": "劉厝排水",
            "district": "七股區",
            "info": "0.11",
            "alert_level": "未達警戒",
            "warn_info": "水位目前0.11公尺,距附近低漥處地面高程尚有1.89公尺,距警戒水位尚有2.79公尺,行動值為1.5公尺",
            "date": "2019\/10\/14 08:30",
            "change": "0.00",
            "lat": 23.130055555555558,
            "lon": 120.13294444444443
        },
        {
            "basin_no": "1630",
            "st_no": "W1772403",
            "st_name": "龍山漁港",
            "river": "劉厝排水",
            "district": "七股區",
            "info": "0.26",
            "alert_level": "未達警戒",
            "warn_info": "水位目前0.26公尺,距警戒水位尚有1.44公尺,行動值為1.19公尺",
            "date": "2019\/10\/14 08:30",
            "change": "0.02",
            "lat": 23.13738888888889,
            "lon": 120.11072222222222
        },
        {
            "basin_no": "1630",
            "st_no": "W1772402",
            "st_name": "十份橋",
            "river": "大溫排水",
            "district": "七股區",
            "info": "0.63",
            "alert_level": "未達警戒",
            "warn_info": "水位目前0.63公尺,距警戒水位尚有0.98公尺",
            "date": "2019\/10\/14 08:30",
            "change": "0.00",
            "lat": 23.09867222222222,
            "lon": 120.11235555555555
        }
    ]
}