{
    "local_wst_warn_info": [
        {
            "basin_no": "1630",
            "st_no": "W1771301",
            "st_name": "民生橋",
            "river": "菜寮溪",
            "district": "左鎮區",
            "info": "26.28",
            "alert_level": "未達警戒",
            "warn_info": "水位目前26.28公尺",
            "date": "2019\/11\/09 08:30",
            "change": "0.00",
            "lat": 23.03562777777778,
            "lon": 120.41689722222223
        },
        {
            "basin_no": "1630",
            "st_no": "W1774101",
            "st_name": "灣裡橋",
            "river": "六分寮中排一",
            "district": "善化區",
            "info": "7.45",
            "alert_level": "未達警戒",
            "warn_info": "水位目前7.45公尺,距附近低漥處地面高程尚有5.56公尺,距警戒水位尚有4.63公尺",
            "date": "2019\/11\/09 08:30",
            "change": "0.00",
            "lat": 23.153388888888887,
            "lon": 120.29091666666666
        },
        {
            "basin_no": "1630",
            "st_no": "W1774501",
            "st_name": "蘇厝橋",
            "river": "安定排水",
            "district": "安定區",
            "info": "5.09",
            "alert_level": "未達警戒",
            "warn_info": "水位目前5.09公尺,距附近低漥處地面高程尚有2.31公尺,距警戒水位尚有2.51公尺,行動值為6.4公尺",
            "date": "2019\/11\/09 08:30",
            "change": "0.00",
            "lat": 23.125930555555556,
            "lon": 120.25077777777778
        },
        {
            "basin_no": "1630",
            "st_no": "W1772301",
            "st_name": "劉厝橋",
            "river": "劉厝排水",
            "district": "西港區",
            "info": "0.42",
            "alert_level": "未達警戒",
            "warn_info": "水位目前0.42公尺,距附近低漥處地面高程尚有3.48公尺,距警戒水位尚有1.43公尺",
            "date": "2019\/11\/09 08:30",
            "change": "0.02",
            "lat": 23.130391666666668,
            "lon": 120.17983333333333
        },
        {
            "basin_no": "1630",
            "st_no": "W1772401",
            "st_name": "七股溪橋",
            "river": "劉厝排水",
            "district": "七股區",
            "info": "0.44",
            "alert_level": "未達警戒",
            "warn_info": "水位目前0.44公尺,距附近低漥處地面高程尚有1.56公尺,距警戒水位尚有2.46公尺,行動值為1.5公尺",
            "date": "2019\/11\/09 08:30",
            "change": "0.04",
            "lat": 23.130055555555558,
            "lon": 120.13294444444443
        }
    ]
}