{
    "local_wst_warn_info": [
        {
            "basin_no": "1630",
            "st_no": "W1771301",
            "st_name": "民生橋",
            "river": "菜寮溪",
            "district": "左鎮區",
            "info": "26.30",
            "alert_level": "未達警戒",
            "warn_info": "水位目前26.30公尺",
            "date": "2019\/10\/29 12:50",
            "change": "0.00",
            "lat": 23.03562777777778,
            "lon": 120.41689722222223
        },
        {
            "basin_no": "1630",
            "st_no": "W1774101",
            "st_name": "灣裡橋",
            "river": "六分寮中排一",
            "district": "善化區",
            "info": "7.47",
            "alert_level": "未達警戒",
            "warn_info": "水位目前7.47公尺,距附近低漥處地面高程尚有5.53公尺,距警戒水位尚有4.60公尺",
            "date": "2019\/10\/29 12:50",
            "change": "0.00",
            "lat": 23.153388888888887,
            "lon": 120.29091666666666
        },
        {
            "basin_no": "1630",
            "st_no": "W1774501",
            "st_name": "蘇厝橋",
            "river": "安定排水",
            "district": "安定區",
            "info": "5.12",
            "alert_level": "未達警戒",
            "warn_info": "水位目前5.12公尺,距附近低漥處地面高程尚有2.28公尺,距警戒水位尚有2.48公尺,行動值為6.4公尺",
            "date": "2019\/10\/29 12:50",
            "change": "0.02",
            "lat": 23.125930555555556,
            "lon": 120.25077777777778
        },
        {
            "basin_no": "1630",
            "st_no": "W1772301",
            "st_name": "劉厝橋",
            "river": "劉厝排水",
            "district": "西港區",
            "info": "0.67",
            "alert_level": "未達警戒",
            "warn_info": "水位目前0.67公尺,距附近低漥處地面高程尚有3.23公尺,距警戒水位尚有1.18公尺",
            "date": "2019\/10\/29 12:50",
            "change": "0.06",
            "lat": 23.130391666666668,
            "lon": 120.17983333333333
        },
        {
            "basin_no": "1630",
            "st_no": "W1772203",
            "st_name": "埔尾橋",
            "river": "大寮排水",
            "district": "佳里區",
            "info": "0.87",
            "alert_level": "未達警戒",
            "warn_info": "水位目前0.87公尺,距警戒水位尚有1.99公尺,行動值為2公尺",
            "date": "2019\/10\/29 12:50",
            "change": "0.02",
            "lat": 23.15338611111111,
            "lon": 120.15796944444445
        },
        {
            "basin_no": "1630",
            "st_no": "W1770905",
            "st_name": "曾文溪排水無名橋",
            "river": "曾文溪排水",
            "district": "安南區",
            "info": "0.52",
            "alert_level": "未達警戒",
            "warn_info": "水位目前0.52公尺",
            "date": "2019\/10\/29 12:50",
            "change": "-0.02",
            "lat": 23.02407222222222,
            "lon": 120.16175000000001
        },
        {
            "basin_no": "1630",
            "st_no": "W1772204",
            "st_name": "後港排水無名橋",
            "river": "後港排水",
            "district": "佳里區",
            "info": "0.83",
            "alert_level": "未達警戒",
            "warn_info": "水位目前0.83公尺,距警戒水位尚有0.82公尺",
            "date": "2019\/10\/29 12:50",
            "change": "0.01",
            "lat": 23.173536111111112,
            "lon": 120.133475
        },
        {
            "basin_no": "1630",
            "st_no": "W1772401",
            "st_name": "七股溪橋",
            "river": "劉厝排水",
            "district": "七股區",
            "info": "0.70",
            "alert_level": "未達警戒",
            "warn_info": "水位目前0.70公尺,距附近低漥處地面高程尚有1.30公尺,距警戒水位尚有2.20公尺,行動值為1.5公尺",
            "date": "2019\/10\/29 12:50",
            "change": "0.04",
            "lat": 23.130055555555558,
            "lon": 120.13294444444443
        },
        {
            "basin_no": "1630",
            "st_no": "W1772403",
            "st_name": "龍山漁港",
            "river": "劉厝排水",
            "district": "七股區",
            "info": "0.85",
            "alert_level": "未達警戒",
            "warn_info": "水位目前0.85公尺,距警戒水位尚有0.85公尺,行動值為1.19公尺",
            "date": "2019\/10\/29 12:50",
            "change": "0.01",
            "lat": 23.13738888888889,
            "lon": 120.11072222222222
        },
        {
            "basin_no": "1630",
            "st_no": "W1772402",
            "st_name": "十份橋",
            "river": "大溫排水",
            "district": "七股區",
            "info": "1.21",
            "alert_level": "未達警戒",
            "warn_info": "水位目前1.21公尺,距警戒水位尚有0.40公尺",
            "date": "2019\/10\/29 12:50",
            "change": "0.01",
            "lat": 23.09867222222222,
            "lon": 120.11235555555555
        }
    ]
}