{
    "local_wst_warn_info": [
        {
            "basin_no": "1630",
            "st_no": "W1772203",
            "st_name": "埔尾橋",
            "river": "大寮排水",
            "district": "佳里區",
            "info": "-0.13",
            "alert_level": "未達警戒",
            "warn_info": "水位目前-0.13公尺,距警戒水位尚有2.99公尺,行動值為2公尺",
            "date": "2019\/12\/06 12:50",
            "change": "0.00",
            "lat": 23.15338611111111,
            "lon": 120.15796944444445
        },
        {
            "basin_no": "1630",
            "st_no": "W1770905",
            "st_name": "曾文溪排水無名橋",
            "river": "曾文溪排水",
            "district": "安南區",
            "info": "0.06",
            "alert_level": "未達警戒",
            "warn_info": "水位目前0.06公尺",
            "date": "2019\/12\/06 12:50",
            "change": "0.00",
            "lat": 23.02407222222222,
            "lon": 120.16175000000001
        },
        {
            "basin_no": "1630",
            "st_no": "W1772204",
            "st_name": "後港排水無名橋",
            "river": "後港排水",
            "district": "佳里區",
            "info": "-0.18",
            "alert_level": "未達警戒",
            "warn_info": "水位目前-0.18公尺,距警戒水位尚有1.83公尺",
            "date": "2019\/12\/06 12:50",
            "change": "0.00",
            "lat": 23.173536111111112,
            "lon": 120.133475
        },
        {
            "basin_no": "1630",
            "st_no": "W1772403",
            "st_name": "龍山漁港",
            "river": "劉厝排水",
            "district": "七股區",
            "info": "0.03",
            "alert_level": "未達警戒",
            "warn_info": "水位目前0.03公尺,距警戒水位尚有1.67公尺,行動值為1.19公尺",
            "date": "2019\/12\/06 12:50",
            "change": "0.00",
            "lat": 23.13738888888889,
            "lon": 120.11072222222222
        },
        {
            "basin_no": "1630",
            "st_no": "W1772402",
            "st_name": "十份橋",
            "river": "大溫排水",
            "district": "七股區",
            "info": "0.63",
            "alert_level": "未達警戒",
            "warn_info": "水位目前0.63公尺,距警戒水位尚有0.98公尺",
            "date": "2019\/12\/06 12:50",
            "change": "-0.01",
            "lat": 23.09867222222222,
            "lon": 120.11235555555555
        }
    ]
}