{
    "local_wst_warn_info": [
        {
            "basin_no": "1650",
            "st_no": "W1771204",
            "st_name": "虎頭埤水庫(取水口)",
            "river": "虎頭溪排水",
            "district": "新化區",
            "info": "36.38",
            "alert_level": "未達警戒",
            "warn_info": "水位目前36.38公尺",
            "date": "2019\/10\/09 14:20",
            "change": "0.00",
            "lat": 23.026441666666667,
            "lon": 120.33689722222222
        },
        {
            "basin_no": "1650",
            "st_no": "W1771205",
            "st_name": "虎頭埤水庫(閘門)",
            "river": "虎頭溪排水",
            "district": "新化區",
            "info": "36.41",
            "alert_level": "未達警戒",
            "warn_info": "水位目前36.41公尺",
            "date": "2019\/10\/09 14:20",
            "change": "0.00",
            "lat": 23.026125,
            "lon": 120.33998888888888
        },
        {
            "basin_no": "1650",
            "st_no": "W1771203",
            "st_name": "新豐1號橋",
            "river": "虎頭溪排水",
            "district": "新化區",
            "info": "15.28",
            "alert_level": "未達警戒",
            "warn_info": "水位目前15.28公尺,距警戒水位尚有3.22公尺,行動值為16.07公尺",
            "date": "2019\/10\/09 14:20",
            "change": "0.00",
            "lat": 23.023055555555555,
            "lon": 120.32941666666666
        },
        {
            "basin_no": "1650",
            "st_no": "W1771206",
            "st_name": "帝溪橋",
            "river": "虎頭溪排水",
            "district": "新化區",
            "info": "8.17",
            "alert_level": "未達警戒",
            "warn_info": "水位目前8.17公尺,距警戒水位尚有3.83公尺",
            "date": "2019\/10\/09 14:20",
            "change": "-0.01",
            "lat": 23.037277777777778,
            "lon": 120.31436111111111
        },
        {
            "basin_no": "1650",
            "st_no": "W1771201",
            "st_name": "穗芳橋",
            "river": "虎頭溪排水",
            "district": "新化區",
            "info": "7.26",
            "alert_level": "未達警戒",
            "warn_info": "水位目前7.26公尺,距警戒水位尚有5.94公尺",
            "date": "2019\/10\/09 14:20",
            "change": "0.00",
            "lat": 23.040958333333336,
            "lon": 120.31239166666667
        },
        {
            "basin_no": "1650",
            "st_no": "W1771202",
            "st_name": "牛稠橋",
            "river": "崩溝坑溪排水",
            "district": "新化區",
            "info": "7.08",
            "alert_level": "未達警戒",
            "warn_info": "水位目前7.08公尺,距警戒水位尚有2.80公尺",
            "date": "2019\/10\/09 14:20",
            "change": "0.00",
            "lat": 23.055583333333335,
            "lon": 120.31079722222222
        },
        {
            "basin_no": "1650",
            "st_no": "W1771003",
            "st_name": "永康排水分洪出口",
            "river": "永康排水",
            "district": "永康區",
            "info": "0.46",
            "alert_level": "未達警戒",
            "warn_info": "水位目前0.46公尺,距警戒水位尚有6.04公尺",
            "date": "2019\/10\/09 14:20",
            "change": "0.01",
            "lat": 23.056972222222225,
            "lon": 120.25360555555555
        },
        {
            "basin_no": "1650",
            "st_no": "W1770902",
            "st_name": "濱海橋",
            "river": "鹽水溪排水",
            "district": "安南區",
            "info": "0.16",
            "alert_level": "未達警戒",
            "warn_info": "水位目前0.16公尺,距附近低漥處地面高程尚有2.94公尺,距警戒水位尚有2.50公尺",
            "date": "2019\/10\/09 14:20",
            "change": "0.00",
            "lat": 23.023666666666667,
            "lon": 120.17366666666668
        },
        {
            "basin_no": "1650",
            "st_no": "W1770901",
            "st_name": "顯宮橋",
            "river": "鹿耳門溪排水",
            "district": "安南區",
            "info": "0.02",
            "alert_level": "未達警戒",
            "warn_info": "水位目前0.02公尺,距附近低漥處地面高程尚有3.48公尺,距警戒水位尚有1.57公尺",
            "date": "2019\/10\/09 14:20",
            "change": "0.00",
            "lat": 23.05477777777778,
            "lon": 120.13886111111111
        }
    ]
}