{
    "local_wst_warn_info": [
        {
            "basin_no": "1650",
            "st_no": "W1771204",
            "st_name": "虎頭埤水庫(取水口)",
            "river": "虎頭溪排水",
            "district": "新化區",
            "info": "36.42",
            "alert_level": "未達警戒",
            "warn_info": "水位目前36.42公尺",
            "date": "2019\/11\/01 04:50",
            "change": "0.00",
            "lat": 23.026441666666667,
            "lon": 120.33689722222222
        },
        {
            "basin_no": "1650",
            "st_no": "W1771205",
            "st_name": "虎頭埤水庫(閘門)",
            "river": "虎頭溪排水",
            "district": "新化區",
            "info": "36.40",
            "alert_level": "未達警戒",
            "warn_info": "水位目前36.40公尺",
            "date": "2019\/11\/01 04:50",
            "change": "0.00",
            "lat": 23.026125,
            "lon": 120.33998888888888
        },
        {
            "basin_no": "1650",
            "st_no": "W1771203",
            "st_name": "新豐1號橋",
            "river": "虎頭溪排水",
            "district": "新化區",
            "info": "15.26",
            "alert_level": "未達警戒",
            "warn_info": "水位目前15.26公尺,距警戒水位尚有3.24公尺,行動值為16.07公尺",
            "date": "2019\/11\/01 04:50",
            "change": "0.00",
            "lat": 23.023055555555555,
            "lon": 120.32941666666666
        },
        {
            "basin_no": "1650",
            "st_no": "W1771801",
            "st_name": "北新大橋",
            "river": "鹽水溪",
            "district": "關廟區",
            "info": "26.30",
            "alert_level": "未達警戒",
            "warn_info": "水位目前26.30公尺,距警戒水位尚有3.57公尺",
            "date": "2019\/11\/01 04:50",
            "change": "0.00",
            "lat": 22.96744722222222,
            "lon": 120.3333
        },
        {
            "basin_no": "1650",
            "st_no": "W1771206",
            "st_name": "帝溪橋",
            "river": "虎頭溪排水",
            "district": "新化區",
            "info": "8.15",
            "alert_level": "未達警戒",
            "warn_info": "水位目前8.15公尺,距警戒水位尚有3.85公尺",
            "date": "2019\/11\/01 04:50",
            "change": "0.00",
            "lat": 23.037277777777778,
            "lon": 120.31436111111111
        },
        {
            "basin_no": "1650",
            "st_no": "W1771201",
            "st_name": "穗芳橋",
            "river": "虎頭溪排水",
            "district": "新化區",
            "info": "7.25",
            "alert_level": "未達警戒",
            "warn_info": "水位目前7.25公尺,距警戒水位尚有5.95公尺",
            "date": "2019\/11\/01 04:50",
            "change": "0.00",
            "lat": 23.040958333333336,
            "lon": 120.31239166666667
        },
        {
            "basin_no": "1650",
            "st_no": "W1771202",
            "st_name": "牛稠橋",
            "river": "崩溝坑溪排水",
            "district": "新化區",
            "info": "7.06",
            "alert_level": "未達警戒",
            "warn_info": "水位目前7.06公尺,距警戒水位尚有2.82公尺",
            "date": "2019\/11\/01 04:50",
            "change": "0.00",
            "lat": 23.055583333333335,
            "lon": 120.31079722222222
        },
        {
            "basin_no": "1650",
            "st_no": "W1771003",
            "st_name": "永康排水分洪出口",
            "river": "永康排水",
            "district": "永康區",
            "info": "0.45",
            "alert_level": "未達警戒",
            "warn_info": "水位目前0.45公尺,距警戒水位尚有6.05公尺",
            "date": "2019\/11\/01 04:50",
            "change": "0.00",
            "lat": 23.056972222222225,
            "lon": 120.25360555555555
        },
        {
            "basin_no": "1650",
            "st_no": "W1771001",
            "st_name": "永康排水分洪口",
            "river": "永康排水",
            "district": "永康區",
            "info": "1.65",
            "alert_level": "未達警戒",
            "warn_info": "水位目前1.65公尺,距附近低漥處地面高程尚有2.58公尺,距警戒水位尚有2.35公尺,行動值為2.91公尺",
            "date": "2019\/11\/01 04:50",
            "change": "0.00",
            "lat": 23.050094444444444,
            "lon": 120.25321666666666
        },
        {
            "basin_no": "1650",
            "st_no": "W1771002",
            "st_name": "網寮橋",
            "river": "三爺溪排水",
            "district": "永康區",
            "info": "4.22",
            "alert_level": "未達警戒",
            "warn_info": "水位目前4.22公尺,距警戒水位尚有2.24公尺,行動值為5.84公尺",
            "date": "2019\/11\/01 04:50",
            "change": "0.00",
            "lat": 22.99857777777778,
            "lon": 120.25046388888889
        },
        {
            "basin_no": "1650",
            "st_no": "W1774502",
            "st_name": "港口橋",
            "river": "安順寮排水",
            "district": "安定區",
            "info": "1.39",
            "alert_level": "未達警戒",
            "warn_info": "水位目前1.39公尺,距附近低漥處地面高程尚有1.71公尺,距警戒水位尚有2.61公尺,行動值為2.8公尺",
            "date": "2019\/11\/01 04:50",
            "change": "0.00",
            "lat": 23.089555555555556,
            "lon": 120.23738888888889
        },
        {
            "basin_no": "1650",
            "st_no": "W1771005",
            "st_name": "永康排水出水口",
            "river": "永康排水",
            "district": "永康區",
            "info": "0.84",
            "alert_level": "未達警戒",
            "warn_info": "水位目前0.84公尺,距警戒水位尚有3.66公尺",
            "date": "2019\/11\/01 04:50",
            "change": "0.00",
            "lat": 23.04522777777778,
            "lon": 120.23263055555556
        },
        {
            "basin_no": "1650",
            "st_no": "W1770910",
            "st_name": "總安橋",
            "river": "六塊寮排水",
            "district": "安南區",
            "info": "0.37",
            "alert_level": "未達警戒",
            "warn_info": "水位目前0.37公尺,距附近低漥處地面高程尚有2.83公尺,距警戒水位尚有1.73公尺",
            "date": "2019\/11\/01 04:50",
            "change": "-0.01",
            "lat": 23.053244444444445,
            "lon": 120.20946944444445
        },
        {
            "basin_no": "1650",
            "st_no": "W1770903",
            "st_name": "怡安培安路口",
            "river": "六塊寮排水",
            "district": "安南區",
            "info": "0.29",
            "alert_level": "未達警戒",
            "warn_info": "水位目前0.29公尺,距附近低漥處地面高程尚有2.43公尺,距警戒水位尚有1.72公尺",
            "date": "2019\/11\/01 04:50",
            "change": "-0.02",
            "lat": 23.040833333333335,
            "lon": 120.21233333333333
        },
        {
            "basin_no": "1650",
            "st_no": "W1770401",
            "st_name": "北辰橋",
            "river": "柴頭港溪排水",
            "district": "北區",
            "info": "0.35",
            "alert_level": "未達警戒",
            "warn_info": "水位目前0.35公尺,距附近低漥處地面高程尚有2.09公尺,距警戒水位尚有2.95公尺,行動值為2.4公尺",
            "date": "2019\/11\/01 04:50",
            "change": "0.00",
            "lat": 23.019769444444442,
            "lon": 120.21359444444445
        },
        {
            "basin_no": "1650",
            "st_no": "W1770801",
            "st_name": "民生截流站",
            "river": "鹽水溪排水系統",
            "district": "安平區",
            "info": "-0.20",
            "alert_level": "未達警戒",
            "warn_info": "水位目前-0.20公尺,距附近低漥處地面高程尚有2.30公尺,距警戒水位尚有1.55公尺",
            "date": "2019\/11\/01 04:50",
            "change": "-0.07",
            "lat": 22.995775000000002,
            "lon": 120.19246111111111
        },
        {
            "basin_no": "1650",
            "st_no": "W1770908",
            "st_name": "海尾滯洪池",
            "river": "鹽水溪排水系統",
            "district": "安南區",
            "info": "0.42",
            "alert_level": "未達警戒",
            "warn_info": "水位目前0.42公尺,距附近低漥處地面高程尚有1.88公尺,距警戒水位尚有1.63公尺,行動值為0.5公尺",
            "date": "2019\/11\/01 04:50",
            "change": "0.00",
            "lat": 23.037723333333336,
            "lon": 120.17750500000001
        },
        {
            "basin_no": "1650",
            "st_no": "W1770902",
            "st_name": "濱海橋",
            "river": "鹽水溪排水",
            "district": "安南區",
            "info": "0.43",
            "alert_level": "未達警戒",
            "warn_info": "水位目前0.43公尺,距附近低漥處地面高程尚有2.67公尺,距警戒水位尚有2.23公尺",
            "date": "2019\/11\/01 04:50",
            "change": "-0.02",
            "lat": 23.023666666666667,
            "lon": 120.17366666666668
        },
        {
            "basin_no": "1650",
            "st_no": "W1770201",
            "st_name": "喜樹抽水站",
            "river": "喜樹排水",
            "district": "南區",
            "info": "-0.06",
            "alert_level": "未達警戒",
            "warn_info": "水位目前-0.06公尺",
            "date": "2019\/11\/01 04:50",
            "change": "-0.04",
            "lat": 22.953777777777777,
            "lon": 120.18080555555557
        },
        {
            "basin_no": "1650",
            "st_no": "W1770911",
            "st_name": "海西抽水站旁箱涵橋",
            "river": "鹽水溪排水系統",
            "district": "安南區",
            "info": "0.32",
            "alert_level": "未達警戒",
            "warn_info": "水位目前0.32公尺",
            "date": "2019\/11\/01 04:50",
            "change": "-0.02",
            "lat": 23.040000000000003,
            "lon": 120.17080555555556
        },
        {
            "basin_no": "1650",
            "st_no": "W1770901",
            "st_name": "顯宮橋",
            "river": "鹿耳門溪排水",
            "district": "安南區",
            "info": "0.21",
            "alert_level": "未達警戒",
            "warn_info": "水位目前0.21公尺,距附近低漥處地面高程尚有3.29公尺,距警戒水位尚有1.38公尺",
            "date": "2019\/11\/01 04:50",
            "change": "-0.02",
            "lat": 23.05477777777778,
            "lon": 120.13886111111111
        },
        {
            "basin_no": "1650",
            "st_no": "W1770906",
            "st_name": "安清城南路口",
            "river": "土城仔排水",
            "district": "安南區",
            "info": "0.33",
            "alert_level": "未達警戒",
            "warn_info": "水位目前0.33公尺,距附近低漥處地面高程尚有1.77公尺,距警戒水位尚有1.17公尺",
            "date": "2019\/11\/01 04:50",
            "change": "-0.03",
            "lat": 23.051208333333335,
            "lon": 120.12458888888888
        },
        {
            "basin_no": "1650",
            "st_no": "W1770907",
            "st_name": "城西橋",
            "river": "竹筏港之二排水",
            "district": "安南區",
            "info": "0.44",
            "alert_level": "未達警戒",
            "warn_info": "水位目前0.44公尺,距附近低漥處地面高程尚有2.16公尺,距警戒水位尚有1.16公尺",
            "date": "2019\/11\/01 04:50",
            "change": "-0.02",
            "lat": 23.055666666666667,
            "lon": 120.0883861111111
        }
    ]
}