{
    "local_wst_warn_info": [
        {
            "basin_no": "1650",
            "st_no": "W1771204",
            "st_name": "虎頭埤水庫(取水口)",
            "river": "虎頭溪排水",
            "district": "新化區",
            "info": "37.00",
            "alert_level": "未達警戒",
            "warn_info": "水位目前37.00公尺",
            "date": "2020\/01\/21 10:40",
            "change": "0.00",
            "lat": 23.026441666666667,
            "lon": 120.33689722222222
        },
        {
            "basin_no": "1650",
            "st_no": "W1771205",
            "st_name": "虎頭埤水庫(閘門)",
            "river": "虎頭溪排水",
            "district": "新化區",
            "info": "35.36",
            "alert_level": "未達警戒",
            "warn_info": "水位目前35.36公尺",
            "date": "2020\/01\/21 10:40",
            "change": "0.00",
            "lat": 23.026125,
            "lon": 120.33998888888888
        },
        {
            "basin_no": "1650",
            "st_no": "W1771203",
            "st_name": "新豐1號橋",
            "river": "虎頭溪排水",
            "district": "新化區",
            "info": "15.27",
            "alert_level": "未達警戒",
            "warn_info": "水位目前15.27公尺,距警戒水位尚有3.23公尺,行動值為16.07公尺",
            "date": "2020\/01\/21 10:50",
            "change": "0.00",
            "lat": 23.023055555555555,
            "lon": 120.32941666666666
        },
        {
            "basin_no": "1650",
            "st_no": "W1771801",
            "st_name": "北新大橋",
            "river": "鹽水溪",
            "district": "關廟區",
            "info": "26.34",
            "alert_level": "未達警戒",
            "warn_info": "水位目前26.34公尺,距警戒水位尚有3.52公尺",
            "date": "2020\/01\/21 10:40",
            "change": "0.00",
            "lat": 22.96744722222222,
            "lon": 120.3333
        },
        {
            "basin_no": "1650",
            "st_no": "W1771206",
            "st_name": "帝溪橋",
            "river": "虎頭溪排水",
            "district": "新化區",
            "info": "8.19",
            "alert_level": "未達警戒",
            "warn_info": "水位目前8.19公尺,距警戒水位尚有3.82公尺",
            "date": "2020\/01\/21 10:40",
            "change": "0.00",
            "lat": 23.037277777777778,
            "lon": 120.31436111111111
        },
        {
            "basin_no": "1650",
            "st_no": "W1771201",
            "st_name": "穗芳橋",
            "river": "虎頭溪排水",
            "district": "新化區",
            "info": "7.20",
            "alert_level": "未達警戒",
            "warn_info": "水位目前7.20公尺,距警戒水位尚有6.00公尺",
            "date": "2020\/01\/21 10:50",
            "change": "0.00",
            "lat": 23.040958333333336,
            "lon": 120.31239166666667
        },
        {
            "basin_no": "1650",
            "st_no": "W1771202",
            "st_name": "牛稠橋",
            "river": "崩溝坑溪排水",
            "district": "新化區",
            "info": "6.93",
            "alert_level": "未達警戒",
            "warn_info": "水位目前6.93公尺,距警戒水位尚有2.96公尺",
            "date": "2020\/01\/21 10:50",
            "change": "0.00",
            "lat": 23.055583333333335,
            "lon": 120.31079722222222
        },
        {
            "basin_no": "1650",
            "st_no": "W1774401",
            "st_name": "新市橋",
            "river": "那拔林溪排水",
            "district": "新化區",
            "info": "4.61",
            "alert_level": "未達警戒",
            "warn_info": "水位目前4.61公尺,距警戒水位尚有5.90公尺",
            "date": "2020\/01\/21 10:40",
            "change": "0.00",
            "lat": 23.066052777777777,
            "lon": 120.2923888888889
        },
        {
            "basin_no": "1650",
            "st_no": "W1771005",
            "st_name": "永康排水出水口",
            "river": "永康排水",
            "district": "永康區",
            "info": "0.77",
            "alert_level": "未達警戒",
            "warn_info": "水位目前0.77公尺,距警戒水位尚有3.73公尺",
            "date": "2020\/01\/21 10:50",
            "change": "0.00",
            "lat": 23.04522777777778,
            "lon": 120.23263055555556
        },
        {
            "basin_no": "1650",
            "st_no": "W1770908",
            "st_name": "海尾滯洪池",
            "river": "鹽水溪排水系統",
            "district": "安南區",
            "info": "0.48",
            "alert_level": "未達警戒",
            "warn_info": "水位目前0.48公尺,距附近低漥處地面高程尚有1.82公尺,距警戒水位尚有1.57公尺,行動值為0.5公尺",
            "date": "2020\/01\/21 10:40",
            "change": "0.00",
            "lat": 23.037723333333336,
            "lon": 120.17750500000001
        },
        {
            "basin_no": "1650",
            "st_no": "W1770911",
            "st_name": "海西抽水站旁箱涵橋",
            "river": "鹽水溪排水系統",
            "district": "安南區",
            "info": "0.17",
            "alert_level": "未達警戒",
            "warn_info": "水位目前0.17公尺",
            "date": "2020\/01\/21 10:40",
            "change": "0.00",
            "lat": 23.040000000000003,
            "lon": 120.17080555555556
        },
        {
            "basin_no": "1650",
            "st_no": "W1770906",
            "st_name": "安清城南路口",
            "river": "土城仔排水",
            "district": "安南區",
            "info": "0.28",
            "alert_level": "未達警戒",
            "warn_info": "水位目前0.28公尺,距附近低漥處地面高程尚有1.82公尺,距警戒水位尚有1.22公尺",
            "date": "2020\/01\/21 10:40",
            "change": "0.00",
            "lat": 23.051208333333335,
            "lon": 120.12458888888888
        },
        {
            "basin_no": "1650",
            "st_no": "W1770907",
            "st_name": "城西橋",
            "river": "竹筏港之二排水",
            "district": "安南區",
            "info": "0.05",
            "alert_level": "未達警戒",
            "warn_info": "水位目前0.05公尺,距附近低漥處地面高程尚有2.55公尺,距警戒水位尚有1.55公尺",
            "date": "2020\/01\/21 10:40",
            "change": "0.00",
            "lat": 23.055666666666667,
            "lon": 120.0883861111111
        }
    ]
}