{
    "local_wst_warn_info": [
        {
            "basin_no": "1650",
            "st_no": "W1771204",
            "st_name": "虎頭埤水庫(取水口)",
            "river": "虎頭溪排水",
            "district": "新化區",
            "info": "36.62",
            "alert_level": "未達警戒",
            "warn_info": "水位目前36.62公尺",
            "date": "2019\/11\/13 01:40",
            "change": "0.00",
            "lat": 23.026441666666667,
            "lon": 120.33689722222222
        },
        {
            "basin_no": "1650",
            "st_no": "W1771205",
            "st_name": "虎頭埤水庫(閘門)",
            "river": "虎頭溪排水",
            "district": "新化區",
            "info": "36.62",
            "alert_level": "未達警戒",
            "warn_info": "水位目前36.62公尺",
            "date": "2019\/11\/13 01:40",
            "change": "0.00",
            "lat": 23.026125,
            "lon": 120.33998888888888
        },
        {
            "basin_no": "1650",
            "st_no": "W1771203",
            "st_name": "新豐1號橋",
            "river": "虎頭溪排水",
            "district": "新化區",
            "info": "15.26",
            "alert_level": "未達警戒",
            "warn_info": "水位目前15.26公尺,距警戒水位尚有3.24公尺,行動值為16.07公尺",
            "date": "2019\/11\/13 01:40",
            "change": "0.00",
            "lat": 23.023055555555555,
            "lon": 120.32941666666666
        },
        {
            "basin_no": "1650",
            "st_no": "W1771201",
            "st_name": "穗芳橋",
            "river": "虎頭溪排水",
            "district": "新化區",
            "info": "7.25",
            "alert_level": "未達警戒",
            "warn_info": "水位目前7.25公尺,距警戒水位尚有5.95公尺",
            "date": "2019\/11\/13 01:40",
            "change": "0.00",
            "lat": 23.040958333333336,
            "lon": 120.31239166666667
        },
        {
            "basin_no": "1650",
            "st_no": "W1771003",
            "st_name": "永康排水分洪出口",
            "river": "永康排水",
            "district": "永康區",
            "info": "0.47",
            "alert_level": "未達警戒",
            "warn_info": "水位目前0.47公尺,距警戒水位尚有6.03公尺",
            "date": "2019\/11\/13 01:40",
            "change": "-0.01",
            "lat": 23.056972222222225,
            "lon": 120.25360555555555
        },
        {
            "basin_no": "1650",
            "st_no": "W1771001",
            "st_name": "永康排水分洪口",
            "river": "永康排水",
            "district": "永康區",
            "info": "1.68",
            "alert_level": "未達警戒",
            "warn_info": "水位目前1.68公尺,距附近低漥處地面高程尚有2.55公尺,距警戒水位尚有2.32公尺,行動值為2.91公尺",
            "date": "2019\/11\/13 01:40",
            "change": "0.00",
            "lat": 23.050094444444444,
            "lon": 120.25321666666666
        },
        {
            "basin_no": "1650",
            "st_no": "W1771005",
            "st_name": "永康排水出水口",
            "river": "永康排水",
            "district": "永康區",
            "info": "0.79",
            "alert_level": "未達警戒",
            "warn_info": "水位目前0.79公尺,距警戒水位尚有3.71公尺",
            "date": "2019\/11\/13 01:40",
            "change": "0.00",
            "lat": 23.04522777777778,
            "lon": 120.23263055555556
        },
        {
            "basin_no": "1650",
            "st_no": "W1770908",
            "st_name": "海尾滯洪池",
            "river": "鹽水溪排水系統",
            "district": "安南區",
            "info": "0.52",
            "alert_level": "未達警戒",
            "warn_info": "水位目前0.52公尺,距附近低漥處地面高程尚有1.78公尺,距警戒水位尚有1.53公尺,行動值為0.5公尺",
            "date": "2019\/11\/13 01:40",
            "change": "0.01",
            "lat": 23.037723333333336,
            "lon": 120.17750500000001
        },
        {
            "basin_no": "1650",
            "st_no": "W1770201",
            "st_name": "喜樹抽水站",
            "river": "喜樹排水",
            "district": "南區",
            "info": "0.08",
            "alert_level": "未達警戒",
            "warn_info": "水位目前0.08公尺",
            "date": "2019\/11\/13 01:40",
            "change": "-0.02",
            "lat": 22.953777777777777,
            "lon": 120.18080555555557
        },
        {
            "basin_no": "1650",
            "st_no": "W1770911",
            "st_name": "海西抽水站旁箱涵橋",
            "river": "鹽水溪排水系統",
            "district": "安南區",
            "info": "0.37",
            "alert_level": "未達警戒",
            "warn_info": "水位目前0.37公尺",
            "date": "2019\/11\/13 01:40",
            "change": "-0.02",
            "lat": 23.040000000000003,
            "lon": 120.17080555555556
        },
        {
            "basin_no": "1650",
            "st_no": "W1770906",
            "st_name": "安清城南路口",
            "river": "土城仔排水",
            "district": "安南區",
            "info": "0.42",
            "alert_level": "未達警戒",
            "warn_info": "水位目前0.42公尺,距附近低漥處地面高程尚有1.68公尺,距警戒水位尚有1.08公尺",
            "date": "2019\/11\/13 01:40",
            "change": "-0.02",
            "lat": 23.051208333333335,
            "lon": 120.12458888888888
        },
        {
            "basin_no": "1650",
            "st_no": "W1770907",
            "st_name": "城西橋",
            "river": "竹筏港之二排水",
            "district": "安南區",
            "info": "0.38",
            "alert_level": "未達警戒",
            "warn_info": "水位目前0.38公尺,距附近低漥處地面高程尚有2.22公尺,距警戒水位尚有1.22公尺",
            "date": "2019\/11\/13 01:40",
            "change": "-0.01",
            "lat": 23.055666666666667,
            "lon": 120.0883861111111
        }
    ]
}