{
    "local_wst_warn_info": [
        {
            "basin_no": "1650",
            "st_no": "W1771203",
            "st_name": "新豐1號橋",
            "river": "虎頭溪排水",
            "district": "新化區",
            "info": "15.24",
            "alert_level": "未達警戒",
            "warn_info": "水位目前15.24公尺,距警戒水位尚有3.26公尺,行動值為16.07公尺",
            "date": "2019\/10\/05 03:20",
            "change": "0.00",
            "lat": 23.023055555555555,
            "lon": 120.32941666666666
        },
        {
            "basin_no": "1650",
            "st_no": "W1771206",
            "st_name": "帝溪橋",
            "river": "虎頭溪排水",
            "district": "新化區",
            "info": "8.15",
            "alert_level": "未達警戒",
            "warn_info": "水位目前8.15公尺,距警戒水位尚有3.85公尺",
            "date": "2019\/10\/05 03:20",
            "change": "0.01",
            "lat": 23.037277777777778,
            "lon": 120.31436111111111
        },
        {
            "basin_no": "1650",
            "st_no": "W1771201",
            "st_name": "穗芳橋",
            "river": "虎頭溪排水",
            "district": "新化區",
            "info": "7.29",
            "alert_level": "未達警戒",
            "warn_info": "水位目前7.29公尺,距警戒水位尚有5.92公尺",
            "date": "2019\/10\/05 03:20",
            "change": "0.00",
            "lat": 23.040958333333336,
            "lon": 120.31239166666667
        },
        {
            "basin_no": "1650",
            "st_no": "W1771202",
            "st_name": "牛稠橋",
            "river": "崩溝坑溪排水",
            "district": "新化區",
            "info": "7.09",
            "alert_level": "未達警戒",
            "warn_info": "水位目前7.09公尺,距警戒水位尚有2.79公尺",
            "date": "2019\/10\/05 03:20",
            "change": "0.00",
            "lat": 23.055583333333335,
            "lon": 120.31079722222222
        },
        {
            "basin_no": "1650",
            "st_no": "W1774401",
            "st_name": "新市橋",
            "river": "那拔林溪排水",
            "district": "新化區",
            "info": "4.58",
            "alert_level": "未達警戒",
            "warn_info": "水位目前4.58公尺,距警戒水位尚有5.93公尺",
            "date": "2019\/10\/05 03:20",
            "change": "0.00",
            "lat": 23.066052777777777,
            "lon": 120.2923888888889
        },
        {
            "basin_no": "1650",
            "st_no": "W1771003",
            "st_name": "永康排水分洪出口",
            "river": "永康排水",
            "district": "永康區",
            "info": "0.90",
            "alert_level": "未達警戒",
            "warn_info": "水位目前0.90公尺,距警戒水位尚有5.60公尺",
            "date": "2019\/10\/05 03:20",
            "change": "-0.03",
            "lat": 23.056972222222225,
            "lon": 120.25360555555555
        },
        {
            "basin_no": "1650",
            "st_no": "W1771001",
            "st_name": "永康排水分洪口",
            "river": "永康排水",
            "district": "永康區",
            "info": "1.66",
            "alert_level": "未達警戒",
            "warn_info": "水位目前1.66公尺,距附近低漥處地面高程尚有2.57公尺,距警戒水位尚有2.34公尺,行動值為2.91公尺",
            "date": "2019\/10\/05 03:20",
            "change": "0.00",
            "lat": 23.050094444444444,
            "lon": 120.25321666666666
        },
        {
            "basin_no": "1650",
            "st_no": "W1774502",
            "st_name": "港口橋",
            "river": "安順寮排水",
            "district": "安定區",
            "info": "1.39",
            "alert_level": "未達警戒",
            "warn_info": "水位目前1.39公尺,距附近低漥處地面高程尚有1.71公尺,距警戒水位尚有2.61公尺,行動值為2.8公尺",
            "date": "2019\/10\/05 03:20",
            "change": "0.00",
            "lat": 23.089555555555556,
            "lon": 120.23738888888889
        },
        {
            "basin_no": "1650",
            "st_no": "W1770910",
            "st_name": "總安橋",
            "river": "六塊寮排水",
            "district": "安南區",
            "info": "0.66",
            "alert_level": "未達警戒",
            "warn_info": "水位目前0.66公尺,距附近低漥處地面高程尚有2.54公尺,距警戒水位尚有1.44公尺",
            "date": "2019\/10\/05 03:20",
            "change": "0.00",
            "lat": 23.053244444444445,
            "lon": 120.20946944444445
        },
        {
            "basin_no": "1650",
            "st_no": "W1770401",
            "st_name": "北辰橋",
            "river": "柴頭港溪排水",
            "district": "北區",
            "info": "0.55",
            "alert_level": "未達警戒",
            "warn_info": "水位目前0.55公尺,距附近低漥處地面高程尚有1.89公尺,距警戒水位尚有2.75公尺,行動值為2.4公尺",
            "date": "2019\/10\/05 03:20",
            "change": "-0.02",
            "lat": 23.019769444444442,
            "lon": 120.21359444444445
        },
        {
            "basin_no": "1650",
            "st_no": "W1770801",
            "st_name": "民生截流站",
            "river": "鹽水溪排水系統",
            "district": "安平區",
            "info": "0.54",
            "alert_level": "未達警戒",
            "warn_info": "水位目前0.54公尺,距附近低漥處地面高程尚有1.56公尺,距警戒水位尚有0.81公尺",
            "date": "2019\/10\/05 03:20",
            "change": "-0.07",
            "lat": 22.995775000000002,
            "lon": 120.19246111111111
        },
        {
            "basin_no": "1650",
            "st_no": "W1770902",
            "st_name": "濱海橋",
            "river": "鹽水溪排水",
            "district": "安南區",
            "info": "0.86",
            "alert_level": "未達警戒",
            "warn_info": "水位目前0.86公尺,距附近低漥處地面高程尚有2.24公尺,距警戒水位尚有1.80公尺",
            "date": "2019\/10\/05 03:20",
            "change": "0.00",
            "lat": 23.023666666666667,
            "lon": 120.17366666666668
        },
        {
            "basin_no": "1650",
            "st_no": "W1770901",
            "st_name": "顯宮橋",
            "river": "鹿耳門溪排水",
            "district": "安南區",
            "info": "0.67",
            "alert_level": "未達警戒",
            "warn_info": "水位目前0.67公尺,距附近低漥處地面高程尚有2.83公尺,距警戒水位尚有0.92公尺",
            "date": "2019\/10\/05 03:20",
            "change": "0.00",
            "lat": 23.05477777777778,
            "lon": 120.13886111111111
        }
    ]
}