{
    "local_wst_warn_info": [
        {
            "basin_no": "1650",
            "st_no": "W1771203",
            "st_name": "新豐1號橋",
            "river": "虎頭溪排水",
            "district": "新化區",
            "info": "15.28",
            "alert_level": "未達警戒",
            "warn_info": "水位目前15.28公尺,距警戒水位尚有3.22公尺,行動值為16.07公尺",
            "date": "2019\/10\/10 03:30",
            "change": "0.00",
            "lat": 23.023055555555555,
            "lon": 120.32941666666666
        },
        {
            "basin_no": "1650",
            "st_no": "W1771206",
            "st_name": "帝溪橋",
            "river": "虎頭溪排水",
            "district": "新化區",
            "info": "8.13",
            "alert_level": "未達警戒",
            "warn_info": "水位目前8.13公尺,距警戒水位尚有3.87公尺",
            "date": "2019\/10\/10 03:30",
            "change": "0.00",
            "lat": 23.037277777777778,
            "lon": 120.31436111111111
        },
        {
            "basin_no": "1650",
            "st_no": "W1771201",
            "st_name": "穗芳橋",
            "river": "虎頭溪排水",
            "district": "新化區",
            "info": "7.26",
            "alert_level": "未達警戒",
            "warn_info": "水位目前7.26公尺,距警戒水位尚有5.94公尺",
            "date": "2019\/10\/10 03:30",
            "change": "0.00",
            "lat": 23.040958333333336,
            "lon": 120.31239166666667
        },
        {
            "basin_no": "1650",
            "st_no": "W1771003",
            "st_name": "永康排水分洪出口",
            "river": "永康排水",
            "district": "永康區",
            "info": "0.73",
            "alert_level": "未達警戒",
            "warn_info": "水位目前0.73公尺,距警戒水位尚有5.77公尺",
            "date": "2019\/10\/10 03:30",
            "change": "0.01",
            "lat": 23.056972222222225,
            "lon": 120.25360555555555
        },
        {
            "basin_no": "1650",
            "st_no": "W1770801",
            "st_name": "民生截流站",
            "river": "鹽水溪排水系統",
            "district": "安平區",
            "info": "0.41",
            "alert_level": "未達警戒",
            "warn_info": "水位目前0.41公尺,距附近低漥處地面高程尚有1.69公尺,距警戒水位尚有0.94公尺",
            "date": "2019\/10\/10 03:30",
            "change": "0.00",
            "lat": 22.995775000000002,
            "lon": 120.19246111111111
        },
        {
            "basin_no": "1650",
            "st_no": "W1770901",
            "st_name": "顯宮橋",
            "river": "鹿耳門溪排水",
            "district": "安南區",
            "info": "0.32",
            "alert_level": "未達警戒",
            "warn_info": "水位目前0.32公尺,距附近低漥處地面高程尚有3.18公尺,距警戒水位尚有1.27公尺",
            "date": "2019\/10\/10 03:30",
            "change": "0.02",
            "lat": 23.05477777777778,
            "lon": 120.13886111111111
        }
    ]
}