{
    "local_wst_warn_info": [
        {
            "basin_no": "1660",
            "st_no": "W1771101",
            "st_name": "五甲教養院箱涵橋",
            "river": "港尾溝排水",
            "district": "歸仁區",
            "info": "14.86",
            "alert_level": "未達警戒",
            "warn_info": "水位目前14.86公尺,距警戒水位尚有2.71公尺",
            "date": "2019\/11\/13 00:50",
            "change": "0.00",
            "lat": 22.953388888888888,
            "lon": 120.28702777777778
        },
        {
            "basin_no": "1660",
            "st_no": "W1771709",
            "st_name": "港尾溝溪分洪匯流口",
            "river": "港尾溝排水",
            "district": "仁德區",
            "info": "3.83",
            "alert_level": "未達警戒",
            "warn_info": "水位目前3.83公尺,距警戒水位尚有4.67公尺",
            "date": "2019\/11\/13 00:50",
            "change": "0.00",
            "lat": 22.903144444444443,
            "lon": 120.26767777777778
        },
        {
            "basin_no": "1660",
            "st_no": "W1771708",
            "st_name": "港尾溝溪分洪口",
            "river": "港尾溝排水",
            "district": "仁德區",
            "info": "5.26",
            "alert_level": "未達警戒",
            "warn_info": "水位目前5.26公尺,距警戒水位尚有3.24公尺",
            "date": "2019\/11\/13 00:50",
            "change": "0.00",
            "lat": 22.927341666666667,
            "lon": 120.257125
        },
        {
            "basin_no": "1660",
            "st_no": "W1771004",
            "st_name": "文化站",
            "river": "大灣排水",
            "district": "永康區",
            "info": "5.63",
            "alert_level": "未達警戒",
            "warn_info": "水位目前5.63公尺,距警戒水位尚有0.87公尺",
            "date": "2019\/11\/13 00:50",
            "change": "0.00",
            "lat": 23.01297222222222,
            "lon": 120.25444444444445
        },
        {
            "basin_no": "1660",
            "st_no": "W1771703",
            "st_name": "鯽潭橋",
            "river": "三爺溪排水",
            "district": "仁德區",
            "info": "3.66",
            "alert_level": "未達警戒",
            "warn_info": "水位目前3.66公尺,距附近低漥處地面高程尚有4.14公尺,距警戒水位尚有3.04公尺,行動值為6公尺",
            "date": "2019\/11\/13 00:50",
            "change": "0.00",
            "lat": 22.991083333333336,
            "lon": 120.25044444444444
        },
        {
            "basin_no": "1660",
            "st_no": "W1771712",
            "st_name": "萬代橋",
            "river": "三爺溪排水",
            "district": "仁德區",
            "info": "0.96",
            "alert_level": "未達警戒",
            "warn_info": "水位目前0.96公尺,距警戒水位尚有4.04公尺",
            "date": "2019\/11\/13 00:50",
            "change": "0.00",
            "lat": 22.972069444444443,
            "lon": 120.24908055555555
        },
        {
            "basin_no": "1660",
            "st_no": "W1771710",
            "st_name": "仁德滯洪北池",
            "river": "三爺溪排水",
            "district": "仁德區",
            "info": "1.69",
            "alert_level": "未達警戒",
            "warn_info": "水位目前1.69公尺",
            "date": "2019\/11\/13 00:50",
            "change": "0.00",
            "lat": 22.965444444444444,
            "lon": 120.24741388888889
        },
        {
            "basin_no": "1660",
            "st_no": "W1771711",
            "st_name": "仁德滯洪南池",
            "river": "三爺溪排水",
            "district": "仁德區",
            "info": "2.04",
            "alert_level": "未達警戒",
            "warn_info": "水位目前2.04公尺",
            "date": "2019\/11\/13 00:50",
            "change": "0.00",
            "lat": 22.961299999999998,
            "lon": 120.24716944444445
        },
        {
            "basin_no": "1660",
            "st_no": "W1771702",
            "st_name": "洋子下橋",
            "river": "三爺溪排水",
            "district": "仁德區",
            "info": "0.60",
            "alert_level": "未達警戒",
            "warn_info": "水位目前0.60公尺,距附近低漥處地面高程尚有6.31公尺,距警戒水位尚有4.78公尺,行動值為5.08公尺",
            "date": "2019\/11\/13 00:50",
            "change": "0.00",
            "lat": 22.956166666666665,
            "lon": 120.24291111111111
        },
        {
            "basin_no": "1660",
            "st_no": "W1771701",
            "st_name": "五空橋",
            "river": "三爺溪排水",
            "district": "仁德區",
            "info": "0.33",
            "alert_level": "未達警戒",
            "warn_info": "水位目前0.33公尺",
            "date": "2019\/11\/13 00:50",
            "change": "-0.01",
            "lat": 22.927333333333333,
            "lon": 120.22147222222222
        }
    ]
}