{
    "local_wst_warn_info": [
        {
            "basin_no": "1660",
            "st_no": "W1771101",
            "st_name": "五甲教養院箱涵橋",
            "river": "港尾溝排水",
            "district": "歸仁區",
            "info": "14.87",
            "alert_level": "未達警戒",
            "warn_info": "水位目前14.87公尺,距警戒水位尚有2.70公尺",
            "date": "2019\/10\/27 23:40",
            "change": "0.01",
            "lat": 22.953388888888888,
            "lon": 120.28702777777778
        },
        {
            "basin_no": "1660",
            "st_no": "W1771709",
            "st_name": "港尾溝溪分洪匯流口",
            "river": "港尾溝排水",
            "district": "仁德區",
            "info": "3.82",
            "alert_level": "未達警戒",
            "warn_info": "水位目前3.82公尺,距警戒水位尚有4.68公尺",
            "date": "2019\/10\/27 23:40",
            "change": "0.00",
            "lat": 22.903144444444443,
            "lon": 120.26767777777778
        },
        {
            "basin_no": "1660",
            "st_no": "W1771707",
            "st_name": "港尾溝台86線下橋",
            "river": "港尾溝排水",
            "district": "仁德區",
            "info": "5.66",
            "alert_level": "未達警戒",
            "warn_info": "水位目前5.66公尺,距附近低漥處地面高程尚有4.14公尺,距警戒水位尚有3.34公尺,行動值為9公尺",
            "date": "2019\/10\/27 23:40",
            "change": "0.00",
            "lat": 22.933816666666665,
            "lon": 120.26171666666667
        },
        {
            "basin_no": "1660",
            "st_no": "W1771708",
            "st_name": "港尾溝溪分洪口",
            "river": "港尾溝排水",
            "district": "仁德區",
            "info": "5.31",
            "alert_level": "未達警戒",
            "warn_info": "水位目前5.31公尺,距警戒水位尚有3.19公尺",
            "date": "2019\/10\/27 23:40",
            "change": "0.00",
            "lat": 22.927341666666667,
            "lon": 120.257125
        },
        {
            "basin_no": "1660",
            "st_no": "W1771004",
            "st_name": "文化站",
            "river": "大灣排水",
            "district": "永康區",
            "info": "5.63",
            "alert_level": "未達警戒",
            "warn_info": "水位目前5.63公尺,距警戒水位尚有0.87公尺",
            "date": "2019\/10\/27 23:40",
            "change": "0.00",
            "lat": 23.01297222222222,
            "lon": 120.25444444444445
        },
        {
            "basin_no": "1660",
            "st_no": "W1771002",
            "st_name": "網寮橋",
            "river": "大灣排水",
            "district": "永康區",
            "info": "4.22",
            "alert_level": "未達警戒",
            "warn_info": "水位目前4.22公尺,距警戒水位尚有2.24公尺,行動值為5.84公尺",
            "date": "2019\/10\/27 23:40",
            "change": "0.00",
            "lat": 22.99857777777778,
            "lon": 120.25046388888889
        },
        {
            "basin_no": "1660",
            "st_no": "W1771703",
            "st_name": "鯽潭橋",
            "river": "三爺溪排水",
            "district": "仁德區",
            "info": "3.96",
            "alert_level": "未達警戒",
            "warn_info": "水位目前3.96公尺,距附近低漥處地面高程尚有3.85公尺,距警戒水位尚有2.75公尺,行動值為6公尺",
            "date": "2019\/10\/27 23:40",
            "change": "0.00",
            "lat": 22.991083333333336,
            "lon": 120.25044444444444
        },
        {
            "basin_no": "1660",
            "st_no": "W1771712",
            "st_name": "萬代橋",
            "river": "三爺溪排水",
            "district": "仁德區",
            "info": "0.94",
            "alert_level": "未達警戒",
            "warn_info": "水位目前0.94公尺,距警戒水位尚有4.06公尺",
            "date": "2019\/10\/27 23:40",
            "change": "0.00",
            "lat": 22.972069444444443,
            "lon": 120.24908055555555
        },
        {
            "basin_no": "1660",
            "st_no": "W1771710",
            "st_name": "仁德滯洪北池",
            "river": "三爺溪排水",
            "district": "仁德區",
            "info": "1.69",
            "alert_level": "未達警戒",
            "warn_info": "水位目前1.69公尺",
            "date": "2019\/10\/27 23:40",
            "change": "0.00",
            "lat": 22.965444444444444,
            "lon": 120.24741388888889
        },
        {
            "basin_no": "1660",
            "st_no": "W1771711",
            "st_name": "仁德滯洪南池",
            "river": "三爺溪排水",
            "district": "仁德區",
            "info": "2.07",
            "alert_level": "未達警戒",
            "warn_info": "水位目前2.07公尺",
            "date": "2019\/10\/27 23:40",
            "change": "0.00",
            "lat": 22.961299999999998,
            "lon": 120.24716944444445
        },
        {
            "basin_no": "1660",
            "st_no": "W1771702",
            "st_name": "洋子下橋",
            "river": "三爺溪排水",
            "district": "仁德區",
            "info": "0.58",
            "alert_level": "未達警戒",
            "warn_info": "水位目前0.58公尺,距附近低漥處地面高程尚有6.33公尺,距警戒水位尚有4.80公尺,行動值為5.08公尺",
            "date": "2019\/10\/27 23:40",
            "change": "0.00",
            "lat": 22.956166666666665,
            "lon": 120.24291111111111
        },
        {
            "basin_no": "1660",
            "st_no": "W1771705",
            "st_name": "港尾溝溪水門(內)",
            "river": "港尾溝排水",
            "district": "仁德區",
            "info": "0.40",
            "alert_level": "未達警戒",
            "warn_info": "水位目前0.40公尺,距附近低漥處地面高程尚有5.31公尺",
            "date": "2019\/10\/27 23:40",
            "change": "0.00",
            "lat": 22.919222222222224,
            "lon": 120.23175
        },
        {
            "basin_no": "1660",
            "st_no": "W1771706",
            "st_name": "港尾溝溪水門(外)",
            "river": "港尾溝排水",
            "district": "仁德區",
            "info": "0.39",
            "alert_level": "未達警戒",
            "warn_info": "水位目前0.39公尺,距附近低漥處地面高程尚有5.31公尺",
            "date": "2019\/10\/27 23:40",
            "change": "0.00",
            "lat": 22.919222222222224,
            "lon": 120.23175
        },
        {
            "basin_no": "1660",
            "st_no": "W1771701",
            "st_name": "五空橋",
            "river": "三爺溪排水",
            "district": "仁德區",
            "info": "0.35",
            "alert_level": "未達警戒",
            "warn_info": "水位目前0.35公尺",
            "date": "2019\/10\/27 23:40",
            "change": "-0.01",
            "lat": 22.927333333333333,
            "lon": 120.22147222222222
        },
        {
            "basin_no": "1660",
            "st_no": "W1771704",
            "st_name": "大甲橋",
            "river": "大甲排水",
            "district": "仁德區",
            "info": "0.19",
            "alert_level": "未達警戒",
            "warn_info": "水位目前0.19公尺,距附近低漥處地面高程尚有3.16公尺,距警戒水位尚有3.17公尺,行動值為2.85公尺",
            "date": "2019\/10\/27 23:40",
            "change": "-0.02",
            "lat": 22.922972222222224,
            "lon": 120.19886111111111
        },
        {
            "basin_no": "1660",
            "st_no": "W1770202",
            "st_name": "灣裡抽水站水門(施工中)",
            "river": "二仁溪",
            "district": "南區",
            "info": "0.12",
            "alert_level": "未達警戒",
            "warn_info": "水位目前0.12公尺,距附近低漥處地面高程尚有1.58公尺,行動值為1.2公尺",
            "date": "2019\/10\/27 23:40",
            "change": "-0.09",
            "lat": 22.918750000000003,
            "lon": 120.18244444444444
        }
    ]
}