{
    "local_wst_warn_info": [
        {
            "basin_no": "1660",
            "st_no": "W1771707",
            "st_name": "港尾溝台86線下橋",
            "river": "港尾溝排水",
            "district": "仁德區",
            "info": "5.66",
            "alert_level": "未達警戒",
            "warn_info": "水位目前5.66公尺,距附近低漥處地面高程尚有4.14公尺,距警戒水位尚有3.34公尺,行動值為9公尺",
            "date": "2019\/10\/25 22:00",
            "change": "0.00",
            "lat": 22.933816666666665,
            "lon": 120.26171666666667
        },
        {
            "basin_no": "1660",
            "st_no": "W1771708",
            "st_name": "港尾溝溪分洪口",
            "river": "港尾溝排水",
            "district": "仁德區",
            "info": "5.31",
            "alert_level": "未達警戒",
            "warn_info": "水位目前5.31公尺,距警戒水位尚有3.19公尺",
            "date": "2019\/10\/25 22:00",
            "change": "0.00",
            "lat": 22.927341666666667,
            "lon": 120.257125
        },
        {
            "basin_no": "1660",
            "st_no": "W1771004",
            "st_name": "文化站",
            "river": "大灣排水",
            "district": "永康區",
            "info": "5.63",
            "alert_level": "未達警戒",
            "warn_info": "水位目前5.63公尺,距警戒水位尚有0.87公尺",
            "date": "2019\/10\/25 22:00",
            "change": "0.00",
            "lat": 23.01297222222222,
            "lon": 120.25444444444445
        },
        {
            "basin_no": "1660",
            "st_no": "W1771002",
            "st_name": "網寮橋",
            "river": "大灣排水",
            "district": "永康區",
            "info": "4.22",
            "alert_level": "未達警戒",
            "warn_info": "水位目前4.22公尺,距警戒水位尚有2.24公尺,行動值為5.84公尺",
            "date": "2019\/10\/25 22:00",
            "change": "0.00",
            "lat": 22.99857777777778,
            "lon": 120.25046388888889
        },
        {
            "basin_no": "1660",
            "st_no": "W1771703",
            "st_name": "鯽潭橋",
            "river": "三爺溪排水",
            "district": "仁德區",
            "info": "3.97",
            "alert_level": "未達警戒",
            "warn_info": "水位目前3.97公尺,距附近低漥處地面高程尚有3.83公尺,距警戒水位尚有2.73公尺,行動值為6公尺",
            "date": "2019\/10\/25 22:00",
            "change": "0.00",
            "lat": 22.991083333333336,
            "lon": 120.25044444444444
        },
        {
            "basin_no": "1660",
            "st_no": "W1771712",
            "st_name": "萬代橋",
            "river": "三爺溪排水",
            "district": "仁德區",
            "info": "0.94",
            "alert_level": "未達警戒",
            "warn_info": "水位目前0.94公尺,距警戒水位尚有4.06公尺",
            "date": "2019\/10\/25 22:00",
            "change": "0.00",
            "lat": 22.972069444444443,
            "lon": 120.24908055555555
        },
        {
            "basin_no": "1660",
            "st_no": "W1771711",
            "st_name": "仁德滯洪南池",
            "river": "三爺溪排水",
            "district": "仁德區",
            "info": "2.07",
            "alert_level": "未達警戒",
            "warn_info": "水位目前2.07公尺",
            "date": "2019\/10\/25 22:00",
            "change": "0.00",
            "lat": 22.961299999999998,
            "lon": 120.24716944444445
        },
        {
            "basin_no": "1660",
            "st_no": "W1771702",
            "st_name": "洋子下橋",
            "river": "三爺溪排水",
            "district": "仁德區",
            "info": "0.51",
            "alert_level": "未達警戒",
            "warn_info": "水位目前0.51公尺,距附近低漥處地面高程尚有6.40公尺,距警戒水位尚有4.87公尺,行動值為5.08公尺",
            "date": "2019\/10\/25 22:00",
            "change": "0.00",
            "lat": 22.956166666666665,
            "lon": 120.24291111111111
        },
        {
            "basin_no": "1660",
            "st_no": "W1771701",
            "st_name": "五空橋",
            "river": "三爺溪排水",
            "district": "仁德區",
            "info": "0.36",
            "alert_level": "未達警戒",
            "warn_info": "水位目前0.36公尺",
            "date": "2019\/10\/25 22:00",
            "change": "-0.01",
            "lat": 22.927333333333333,
            "lon": 120.22147222222222
        },
        {
            "basin_no": "1660",
            "st_no": "W1771704",
            "st_name": "大甲橋",
            "river": "大甲排水",
            "district": "仁德區",
            "info": "0.23",
            "alert_level": "未達警戒",
            "warn_info": "水位目前0.23公尺,距附近低漥處地面高程尚有3.12公尺,距警戒水位尚有3.13公尺,行動值為2.85公尺",
            "date": "2019\/10\/25 22:00",
            "change": "-0.02",
            "lat": 22.922972222222224,
            "lon": 120.19886111111111
        },
        {
            "basin_no": "1660",
            "st_no": "W1770202",
            "st_name": "灣裡抽水站水門(施工中)",
            "river": "二仁溪",
            "district": "南區",
            "info": "0.28",
            "alert_level": "未達警戒",
            "warn_info": "水位目前0.28公尺,距附近低漥處地面高程尚有1.42公尺,行動值為1.2公尺",
            "date": "2019\/10\/25 22:00",
            "change": "-0.04",
            "lat": 22.918750000000003,
            "lon": 120.18244444444444
        }
    ]
}