{
    "local_wst_warn_info": [
        {
            "basin_no": "1660",
            "st_no": "W1771101",
            "st_name": "五甲教養院箱涵橋",
            "river": "港尾溝排水",
            "district": "歸仁區",
            "info": "14.86",
            "alert_level": "未達警戒",
            "warn_info": "水位目前14.86公尺,距警戒水位尚有2.71公尺",
            "date": "2019\/11\/07 17:10",
            "change": "0.00",
            "lat": 22.953388888888888,
            "lon": 120.28702777777778
        },
        {
            "basin_no": "1660",
            "st_no": "W1771707",
            "st_name": "港尾溝台86線下橋",
            "river": "港尾溝排水",
            "district": "仁德區",
            "info": "5.64",
            "alert_level": "未達警戒",
            "warn_info": "水位目前5.64公尺,距附近低漥處地面高程尚有4.16公尺,距警戒水位尚有3.36公尺,行動值為9公尺",
            "date": "2019\/11\/07 17:10",
            "change": "0.00",
            "lat": 22.933816666666665,
            "lon": 120.26171666666667
        },
        {
            "basin_no": "1660",
            "st_no": "W1771002",
            "st_name": "網寮橋",
            "river": "大灣排水",
            "district": "永康區",
            "info": "4.22",
            "alert_level": "未達警戒",
            "warn_info": "水位目前4.22公尺,距警戒水位尚有2.25公尺,行動值為5.84公尺",
            "date": "2019\/11\/07 17:10",
            "change": "0.00",
            "lat": 22.99857777777778,
            "lon": 120.25046388888889
        },
        {
            "basin_no": "1660",
            "st_no": "W1771705",
            "st_name": "港尾溝溪水門(內)",
            "river": "港尾溝排水",
            "district": "仁德區",
            "info": "0.49",
            "alert_level": "未達警戒",
            "warn_info": "水位目前0.49公尺,距附近低漥處地面高程尚有5.21公尺",
            "date": "2019\/11\/07 17:10",
            "change": "0.02",
            "lat": 22.919222222222224,
            "lon": 120.23175
        },
        {
            "basin_no": "1660",
            "st_no": "W1771706",
            "st_name": "港尾溝溪水門(外)",
            "river": "港尾溝排水",
            "district": "仁德區",
            "info": "0.56",
            "alert_level": "未達警戒",
            "warn_info": "水位目前0.56公尺,距附近低漥處地面高程尚有5.14公尺",
            "date": "2019\/11\/07 17:10",
            "change": "0.02",
            "lat": 22.919222222222224,
            "lon": 120.23175
        },
        {
            "basin_no": "1660",
            "st_no": "W1771704",
            "st_name": "大甲橋",
            "river": "大甲排水",
            "district": "仁德區",
            "info": "0.33",
            "alert_level": "未達警戒",
            "warn_info": "水位目前0.33公尺,距附近低漥處地面高程尚有3.02公尺,距警戒水位尚有3.03公尺,行動值為2.85公尺",
            "date": "2019\/11\/07 17:10",
            "change": "0.02",
            "lat": 22.922972222222224,
            "lon": 120.19886111111111
        },
        {
            "basin_no": "1660",
            "st_no": "W1770202",
            "st_name": "灣裡抽水站水門(施工中)",
            "river": "二仁溪",
            "district": "南區",
            "info": "0.85",
            "alert_level": "未達警戒",
            "warn_info": "水位目前0.85公尺,距附近低漥處地面高程尚有0.85公尺,行動值為1.2公尺",
            "date": "2019\/11\/07 17:10",
            "change": "0.08",
            "lat": 22.918750000000003,
            "lon": 120.18244444444444
        }
    ]
}